[
  { "city":"Centreville, AL", "population":"2778", "lat":"32.95", "lon":"-87.134444", "temp": "110 °F / 44 °C", "date": "September 5, 1925" },
  { "city":"Fort Yukon, AK", "population":"583", "lat":"66.5675", "lon":"-145.256389", "temp": "100 °F / 38 °C", "date": "June 27, 1915" },
  { "city":"Lake Havasu City, AZ", "population":"53743", "lat":"34.49", "lon":"-114.308889", "temp": "128 °F / 53 °C", "date": "June 29, 1994" },
  { "city":"Ozark, AR", "population":"3573", "lat":"35.492778", "lon":"-93.837222", "temp": "120 °F / 49 °C", "date": "August 10, 1936" },
  { "city":"Furnace Creek, CA", "population":"24", "lat":"36.458056", "lon":"-116.870833", "temp": "134 °F / 57 °C", "date": "July 10, 1913" },
  { "city":"Sedgwick, CO", "population":"149", "lat":"40.935833", "lon":"-102.525278", "temp": "114 °F / 46 °C", "date": "July 11, 1954" },
  { "city":"Danbury, CT", "population":"84992", "lat":"41.402222", "lon":"-73.471111", "temp": "106 °F / 41 °C", "date": "July 15, 1995" },
  { "city":"Millsboro, DE", "population":"4293", "lat":"38.591389", "lon":"-75.291389", "temp": "110 °F / 43 °C", "date": "July 21, 1930" },
  { "city":"Monticello, FL", "population":"2402", "lat":"30.544722", "lon":"-83.867222", "temp": "109 °F / 43 °C", "date": "June 29, 1931" },
  { "city":"Greenville, GA", "population":"855", "lat":"33.027778", "lon":"-84.713611", "temp": "112 °F / 44 °C", "date": "August 20, 1983" },
  { "city":"Puunene, HI", "population":"50", "lat":"20.8675", "lon":"-156.454444", "temp": "98 °F / 37 °C", "date": "July 14, 1957" },
  { "city":"Orofino, ID", "population":"3038", "lat":"46.485556", "lon":"-116.258889", "temp": "118 °F / 48 °C", "date": "July 28, 1934" },
  { "city":"East Saint Louis, IL", "population":"26922", "lat":"38.616667", "lon":"-90.133333", "temp": "117 °F / 47 °C", "date": "July 14, 1954" },
  { "city":"Collegeville, ID", "population":"330", "lat":"40.914722", "lon":"-87.158056", "temp": "116 °F / 47 °C", "date": "July 14, 1936" },
  { "city":"Keokuk, IA", "population":"10431", "lat":"40.397222", "lon":"-91.385", "temp": "118 °F / 48 °C", "date": "July 20, 1934" },
  { "city":"Alton, KS", "population":"98", "lat":"39.468333", "lon":"-98.9472229", "temp": "121 °F / 49 °C", "date": "July 24, 1936" },
  { "city":"Greensburg, KY", "population":"2128", "lat":"37.259722", "lon":"-85.497778", "temp": "114 °F / 46 °C", "date": "July 28, 1930" },
  { "city":"Plain Dealing, LA", "population":"966", "lat":"32.905833", "lon":"-93.7", "temp": "114 °F / 46 °C", "date": "August 10, 1936" },
  { "city":"Bridgton, ME", "population":"5283", "lat":"44.053611", "lon":"-70.701667", "temp": "105 °F / 41 °C", "date": "July 10, 1911" },
  { "city":"Cumberland, MD", "population":"19978", "lat":"39.647778", "lon":"-78.762778", "temp": "109 °F / 43 °C", "date": "July 10, 1936" },
  { "city":"New Bedford, MA", "population":"95032", "lat":"41.636111", "lon":"-70.934722", "temp": "107 °F / 42 °C", "date": "August 2, 1975" },
  { "city":"Mio, MI", "population":"2016", "lat":"44.652222", "lon":"-84.129722", "temp": "112 °F / 44 °C", "date": "July 13, 1936" },
  { "city":"Beardsley, MN", "population":"222", "lat":"45.556667", "lon":"-96.713056", "temp": "115 °F / 46 °C", "date": "July 29, 1917" },
  { "city":"Holly Springs, MS", "population":"7682", "lat":"34.773333", "lon":"-89.446389", "temp": "115 °F / 46 °C", "date": "July 29, 1930" },
  { "city":"Warsaw, MO", "population":"2120", "lat":"38.245278", "lon":"-93.377222", "temp": "118 °F / 48 °C", "date": "July 14, 1954" },
  { "city":"Medicine Lake, MT", "population":"241", "lat":"48.500556", "lon":"-104.503056", "temp": "117 °F / 47 °C", "date": "July 5, 1937" },
  { "city":"Minden, NE", "population":"2996", "lat":"40.498056", "lon":"-98.951111", "temp": "118 °F / 48 °C", "date": "July 24, 1936" },
  { "city":"Laughlin, NV", "population":"7323", "lat":"35.141667", "lon":"-114.618611", "temp": "125 °F / 52 °C", "date": "June 29, 1994" },
  { "city":"Nashua, NH", "population":"87882", "lat":"42.7575", "lon":"-71.464444", "temp": "106 °F / 41 °C", "date": "July 4, 1911" },
  { "city":"Runyon Watershed, NJ", "population":"N/A", "lat":"40.434167", "lon":"-74.332222", "temp": "110 °F / 43 °C", "date": "July 10, 1936" },
  { "city":"Waste Isolation Pilot Plant, NM", "population":"N/A", "lat":"32.371667", "lon":"-103.793611", "temp": "122 °F / 50 °C", "date": "June 27, 1994" },
  { "city":"Troy, NY", "population":"49702", "lat":"42.731667", "lon":"-73.6925", "temp": "109 °F / 43 °C", "date": "July 22, 1926" },
  { "city":"Fayetteville, NC", "population":"204759", "lat":"35.0525", "lon":"-78.878056", "temp": "110 °F / 43 °C", "date": "August 21, 1983" },
  { "city":"Steele, ND", "population":"709", "lat":"46.856111", "lon":"-99.916667", "temp": "121 °F / 49 °C", "date": "July 6, 1936" },
  { "city":"Gallipolis, OH", "population":"3607", "lat":"38.815278", "lon":"-82.1975", "temp": "113 °F / 45 °C", "date": "July 21, 1934" },
  { "city":"Altus, OK", "population":"19813", "lat":"34.643889", "lon":"-99.326667", "temp": "120 °F / 49 °C", "date": "August 12, 1936" },
  { "city":"Umatilla, OR", "population":"7245", "lat":"45.917222", "lon":"-119.3425", "temp": "117 °F / 47 °C", "date": "July 27, 1939" },
  { "city":"Phoenixville, PA", "population":"16885", "lat":"40.130833", "lon":"-75.519167", "temp": "111 °F / 44 °C", "date": "July 10, 1936" },
  { "city":"Providence, RI", "population":"180393", "lat":"41.823611", "lon":"-71.422222", "temp": "104 °F / 40 °C", "date": "August 2, 1975" },
  { "city":"Camden, SC", "population":"6838", "lat":"34.259167", "lon":"-80.609167", "temp": "113 °F / 45 °C", "date": "June 30, 2012" },
  { "city":"Fort Pierre, SD", "population":"2117", "lat":"44.358889", "lon":"-100.375833", "temp": "120 °F / 49 °C", "date": "July 5, 1936" },
  { "city":"Perryville, TN", "population":"N/A", "lat":"35.620728", "lon":" -88.041732", "temp": "113 °F / 45 °C", "date": "August 9, 1933" },
  { "city":"Monahans, TX", "population":"6953", "lat":"31.587778", "lon":"-102.890556", "temp": "120 °F / 49 °C", "date": "June 28, 1994" },
  { "city":"Saint George, UT", "population":"84405", "lat":"37.095278", "lon":"-113.578056", "temp": "117 °F / 47 °C", "date": "July 5, 1985" },
  { "city":"Vernon, VT", "population":"2141", "lat":"42.768333", "lon":"-72.519167", "temp": "105 °F / 41 °C", "date": "July 4, 1911" },
  { "city":"Balcony Falls, VA", "population":"1046", "lat":"37.633056", "lon":"-79.451667", "temp": "110 °F / 43 °C", "date": "July 15, 1954" },
  { "city":"Burbank, WA", "population":"3291", "lat":"46.195278", "lon":"-119.000556", "temp": "118 °F / 48 °C", "date": "August 5, 1961" },
  { "city":"Martinsburg, WV", "population":"17687", "lat":"39.459167", "lon":"-77.967778", "temp": "112 °F / 44 °C", "date": "July 10, 1936" },
  { "city":"Wisconsin Dells, WI", "population":"2808", "lat":"43.6275", "lon":"-89.770833", "temp": "114 °F / 46 °C", "date": "July 13, 1936" },
  { "city":"Basin, WY", "population":"1300", "lat":"44.378889", "lon":"-108.043056", "temp": "115 °F / 46 °C", "date": "August 8, 1983" }
]